title,category,venue,address,date,url,lat,lon
Eröffnung: Moyra Davey,Ausstellung/Andere Orte,n.b.k.,"Chausseestr. 128-129, 10115 Berlin",Fr. 05.12,https://www.tip-berlin.de/event/ausstellung+andere_orte/1465.2860323292/,52.5279121,13.3860465
Eröffnung: Eva Arnold,Ausstellung/Andere Orte,f³ - freiraum für fotografie,"Prinzessinnenstr. 30, 10969 Berlin",Fr. 05.12,https://www.tip-berlin.de/event/ausstellung+andere_orte/1465.2860459773/,52.5015053,13.4141307
F*CK THE INTERNET: Design Market,Handel/Markt,GlogauAIR,"Glogauer Str. 16, 10969 Berlin",Fr. 05.12,https://www.tip-berlin.de/event/handel+markt/1465.2861618415/,52.4922422,13.4359988
Weihnachten im Tierpark,Sonstiges,Tierpark Berlin,"Am Tierpark 125, 10319 Berlin",Fr. 05.12,https://www.tip-berlin.de/event/sonstiges/1465.2852859498/,52.5036353,13.5248264
Hummpa Weihnachtszirkus: Die Wallerts,Musik/Konzert,SO36,"Oranienstr. 190, 10999 Berlin",Fr. 05.12,https://www.tip-berlin.de/event/musik+konzert/1465.2855837338/,52.5003909,13.4221612
Friendly Capitalism Lounge Vol. 22 – Vernissage,Kunst-Aktion,Galerie Neurotitan,"Rosenthaler Str. 39, 10178 Berlin",Fr. 05.12,https://www.tip-berlin.de/event/kunst-aktion/1465.2857045861/,52.5244928,13.4019195
Hawkins Christmas Market – Stranger Things Weihnachtsmarkt in Berlin,Handel/Markt,Pop Kudamm,"Kurfürstendamm 229, 10719 Berlin",Fr. 05.12,https://www.tip-berlin.de/event/handel+markt/1465.2860675418/,52.5036757,13.3322146
Weihnachts-Basar des Förderkreises Eine Welt im Auswärtigen Amt e. V.,Sonstiges,Auswärtiges Amt,"Werderscher Markt 1, 10117 Berlin",Fr. 05.12,https://www.tip-berlin.de/event/sonstiges/1465.2859397231/,52.5158853,13.3975006
"Berliner Philharmoniker, Ltg. Jordi Savall",Musik/Klassik,Philharmonie,"Herbert-von-Karajan-Str. 1, 10785 Berlin",Fr. 05.12,https://www.tip-berlin.de/event/musik+klassik/1465.10094895/,52.5099888,13.3696059
Quartett zum Quadrat,Bühne/Schauspiel,Radialsystem,"Holzmarktstr. 33, 10243 Berlin",Fr. 05.12,https://www.tip-berlin.de/event/buehne+schauspiel/1465.10097857/,52.5103674,13.4286199
Christmas Garden,Handel/Markt,Botanischer Garten Berlin,"Königin-Luise-Str. 6-8, 14195 Berlin",Fr. 05.12,https://www.tip-berlin.de/event/handel+markt/1465.2852511439/,52.4582459,13.3048516
Ultrasound: Lorde + The Japanese House,Musik/Konzert,Max-Schmeling-Halle,"Am Falkplatz 1, 10437 Berlin",Fr. 05.12,https://www.tip-berlin.de/event/musik+konzert/1465.2853784225/,52.545836,13.4061087
Villazauber,Handel/Markt,Schwartzsche Villa,"Grunewaldstr. 55, 12165 Berlin",Fr. 05.12,https://www.tip-berlin.de/event/handel+markt/1465.2853536555/,52.4569257,13.3194006
The Barking Mad,Musik/Konzert,Wild At Heart,"Wiener Str. 20, 10999 Berlin",Fr. 05.12,https://www.tip-berlin.de/event/musik+konzert/1465.2857239843/,52.4973055,13.4304753
Der Traumzauberbaum,Sonstiges,Zeiss-Großplanetarium,"Prenzlauer Allee 80, 10405 Berlin",Fr. 05.12,https://www.tip-berlin.de/event/sonstiges/1465.10030324/,52.5430569,13.4281438
Deck 2 Deck 7TH BDAY & RELEASEPARTY,Musik/Party,PankeBerlin,"Gerichtstr. 23, 13347 Berlin",Fr. 05.12,https://www.tip-berlin.de/event/musik+party/1465.2862170792/,52.5449968,13.3742384
Herman van Veen - Achtzig,Musik/Konzert,Admiralspalast,"Friedrichstr. 101-102, 10117 Berlin",Fr. 05.12,https://www.tip-berlin.de/event/musik+konzert/1465.10089465/,52.5207913,13.38835
On Water. WasserWissen in Berlin,Ausstellung/Museen,Humboldt Forum,"Schloßplatz, 10178 Berlin",Fr. 05.12,https://www.tip-berlin.de/event/ausstellung+museen/1465.30005240/,52.516714,13.4031305
BREAKING TEMPO 2,Musik/Party,Ohm,"Köpenicker Str. 70, 10179 Berlin",Fr. 05.12,https://www.tip-berlin.de/event/musik+party/1465.2862161817/,52.5106807,13.419484
Bau mich auf Klub,Musik/Party,Club Ost,"Alt-Stralau 1-2, 10245 Berlin",Fr. 05.12,https://www.tip-berlin.de/event/musik+party/1465.2821573788/,52.4970527,13.4650639
Limousine Dream,Musik/Party,Berghain,"Am Wriezener Bahnhof, 10243 Berlin",Fr. 05.12,https://www.tip-berlin.de/event/musik+party/1465.2856048041/,52.5114484,13.4407738
Moonstompers,Musik/Party,Hoppetosse,"Eichenstr. 4, 12435 Berlin",Fr. 05.12,https://www.tip-berlin.de/event/musik+party/1465.2862170761/,52.49694,13.4540533
PLASMA: FBM 5 Years,Musik/Party,Revier Südost,"Schnellerstr. 137, 12439 Berlin",Fr. 05.12,https://www.tip-berlin.de/event/musik+party/1465.2862141641/,52.4606246,13.508975
Pull Up The Vibes!,Musik/Party,Badehaus,"Revaler Str. 99, 10245 Berlin",Fr. 05.12,https://www.tip-berlin.de/event/musik+party/1465.2857016137/,52.5071145,13.4552916
Ein wenig Licht. Und diese Ruhe.,Bühne/Schauspiel,Berliner Ensemble,"Bertolt-Brecht-Platz 1, 10117 Berlin",Fr. 05.12,https://www.tip-berlin.de/event/buehne+schauspiel/1465.10094844/,52.5221371,13.3856798
Eine Weihnachtsgeschichte,Bühne/Kabarett,Bluemax Theater,"Marlene-Dietrich-Pl. 4, 10785 Berlin",Fr. 05.12,https://www.tip-berlin.de/event/buehne+kabarett/1465.2850914051/,52.506926,13.3733397
Get Perlonized,Musik/Party,Sonnenraum,"Eichenstr. 4, 12435 Berlin",Fr. 05.12,https://www.tip-berlin.de/event/musik+party/1465.2862170772/,52.49694,13.4540533
Global Fascisms,Ausstellung/Andere Orte,Haus der Kulturen der Welt,"John-Foster-Dulles-Allee 10, 10557 Berlin",Fr. 05.12,https://www.tip-berlin.de/event/ausstellung+andere_orte/1465.30005206/,52.5187884,13.3648356
Haram Night: Sacred Bloom,Musik/Party,LARK,"Holzmarktstr. 15-18, 10179 Berlin",Fr. 05.12,https://www.tip-berlin.de/event/musik+party/1465.2862170757/,52.5130237,13.4227766
I'm not here forrrrr…,Ausstellung/Andere Orte,Gropius Bau,"Niederkirchnerstr. 7, 10963 Berlin",Fr. 05.12,https://www.tip-berlin.de/event/ausstellung+andere_orte/1465.30005224/,52.5066209,13.3819472
Konstellationen,Ausstellung/Andere Orte,Gropius Bau,"Niederkirchnerstr. 7, 10963 Berlin",Fr. 05.12,https://www.tip-berlin.de/event/ausstellung+andere_orte/1465.30005223/,52.5066209,13.3819472
"Make a travel deep of your inside, and don’t forget me to take",Ausstellung/Andere Orte,PalaisPopulaire,"Unter den Linden 5, 10117 Berlin",Fr. 05.12,https://www.tip-berlin.de/event/ausstellung+andere_orte/1465.30005184/,52.5171465,13.3961451
Off score,Ausstellung/Museen,Hamburger Bahnhof - Nationalgalerie der Gegenwart,"Invalidenstr. 50-51, 10557 Berlin",Fr. 05.12,https://www.tip-berlin.de/event/ausstellung+museen/1465.30004900/,52.52844,13.3720386
Syrigana,Ausstellung/Museen,Hamburger Bahnhof - Nationalgalerie der Gegenwart,"Invalidenstr. 50-51, 10557 Berlin",Fr. 05.12,https://www.tip-berlin.de/event/ausstellung+museen/1465.30004899/,52.52844,13.3720386
Toil,Bühne/Schauspiel,HAU 2,"Hallesches Ufer 24, 10963 Berlin",Fr. 05.12,https://www.tip-berlin.de/event/buehne+schauspiel/1465.10098754/,52.4985219,13.3879268
Wintermarkt Schloßplatz,Handel/Markt,Humboldt Forum,"Schloßplatz, 10178 Berlin",Fr. 05.12,https://www.tip-berlin.de/event/handel+markt/1465.2855470143/,52.5161789,13.4006418
"""Immer wieder muss die Welt neu gesehen werden""",Ausstellung/Museen,Brücke-Museum,"Bussardsteig 9, 14195 Berlin",Fr. 05.12,https://www.tip-berlin.de/event/ausstellung+museen/1465.30005280/,52.4669327,13.2747539
Comic-Stipendium 2025,Ausstellung/Museen,Museum für Kommunikation,"Leipziger Str. 16, 10117 Berlin",Fr. 05.12,https://www.tip-berlin.de/event/ausstellung+museen/1465.30005154/,52.5099308,13.3872552
Dioskuren - Der geschenkte Tag,Ausstellung/Museen,Neues Museum,"Bodestr. 1-3, 10178 Berlin",Fr. 05.12,https://www.tip-berlin.de/event/ausstellung+museen/1465.30005054/,52.520862,13.3982661
Flucht,Ausstellung/Museen,Museum Europäischer Kulturen,"Arnimallee 25, 14195 Berlin",Fr. 05.12,https://www.tip-berlin.de/event/ausstellung+museen/1465.30004990/,52.455519,13.2926911
"Heute noch, morgen schon",Ausstellung/Museen,Nikolaikirche,"Nikolaikirchpl., 10178 Berlin",Fr. 05.12,https://www.tip-berlin.de/event/ausstellung+museen/1465.30005244/,52.5168734,13.4075394
"Im Visier! Lovis Corinth, die Nationalgalerie und die Aktion ""Entartete Kunst""",Ausstellung/Museen,Alte Nationalgalerie,"Bodestraße 1-3, 10178 Berlin",Fr. 05.12,https://www.tip-berlin.de/event/ausstellung+museen/1465.30004998/,52.520862,13.3982661
Käthe Kollwitz - Stille Kraft,Ausstellung/Museen,Käthe-Kollwitz-Museum,"Spandauer Damm 10, 14059 Berlin",Fr. 05.12,https://www.tip-berlin.de/event/ausstellung+museen/1465.2853615592/,52.5206424,13.2927104
Max Ernst bis Dorothea Tanning. Netzwerke des Surrealismus,Ausstellung/Museen,Neue Nationalgalerie,"Potsdamer Str. 50, 10785 Berlin",Fr. 05.12,https://www.tip-berlin.de/event/ausstellung+museen/1465.30004952/,52.5070409,13.3676212
Natur und deutsche Geschichte. Glaube - Biologie - Macht,Ausstellung/Museen,Deutsches Historisches Museum,"Unter den Linden 2, 10117 Berlin",Fr. 05.12,https://www.tip-berlin.de/event/ausstellung+museen/1465.30004821/,52.5177477,13.3970225
Raoul Hausmann. Vision. Provokation. Dada.,Ausstellung/Museen,Berlinische Galerie,"Alte Jakobstr. 124-128, 10969 Berlin",Fr. 05.12,https://www.tip-berlin.de/event/ausstellung+museen/1465.30004958/,52.5039063,13.3982331
The Clock,Ausstellung/Museen,Neue Nationalgalerie,"Potsdamer Str. 50, 10785 Berlin",Fr. 05.12,https://www.tip-berlin.de/event/ausstellung+museen/1465.30005170/,52.5070409,13.3676212
Wundersame Wichtelwelt,Bühne/Schauspiel,Jaro Theater,"Schlangenbader Str. 30, 14197 Berlin",Fr. 05.12,https://www.tip-berlin.de/event/buehne+schauspiel/1465.10064994/,52.4716475,13.307745
Another World is Possible,Ausstellung/Andere Orte,zik - Zeit Ist Knapp,"Schloßstr. 83, 12165 Berlin",Fr. 05.12,https://www.tip-berlin.de/event/ausstellung+andere_orte/1465.2855837605/,52.5004388,13.5224249
Die da oben!,Bühne/Schauspiel,Theater im Delphi,"Gustav-Adolf-Str. 2, 13086 Berlin",Fr. 05.12,https://www.tip-berlin.de/event/buehne+schauspiel/1465.10097887/,52.5519035,13.4311632
F90 x Tranceformation - Nikolaus Edition,Musik/Party,Lokschuppen,"Revaler Str. 99, 10245 Berlin",Fr. 05.12,https://www.tip-berlin.de/event/musik+party/1465.2860985056/,52.5071145,13.4552916
